<?xml version="1.0" encoding="utf-8" ?>
<kml xmlns="http://www.opengis.net/kml/2.2">
<Document id="root_doc">
<Schema name="citybikes" id="citybikes">
	<SimpleField name="ID" type="int"></SimpleField>
</Schema>
  <Placemark>
	<name>Porthania</name>
      <Point><coordinates>24.94879729817433,60.169894346524615</coordinates></Point>
  </Placemark>
  <Placemark>
	<name>Senaatintori</name>
      <Point><coordinates>24.952716914393076,60.169113977855787</coordinates></Point>
  </Placemark>
  <Placemark>
	<name>Ritarikatu</name>
      <Point><coordinates>24.955536652998948,60.171068034171725</coordinates></Point>
  </Placemark>
  <Placemark>
	<name>Kanavaranta</name>
      <Point><coordinates>24.958445565869209,60.168456252483622</coordinates></Point>
  </Placemark>
  <Placemark>
	<name>Kauppatori</name>
      <Point><coordinates>24.956349475711711,60.167617915640307</coordinates></Point>
  </Placemark>
  <Placemark>
	<name>Unioninkatu</name>
      <Point><coordinates>24.950992664525284,60.167500416871675</coordinates></Point>
  </Placemark>
  <Placemark>
	<name>Kasarmitori</name>
      <Point><coordinates>24.948915660739143,60.165535329522413</coordinates></Point>
  </Placemark>
  <Placemark>
	<name>Designmuseo</name>
      <Point><coordinates>24.945983161520864,60.163111935398469</coordinates></Point>
  </Placemark>
  <Placemark>
	<name>Vanha kirkkopuisto</name>
      <Point><coordinates>24.939137402427786,60.165352104752778</coordinates></Point>
  </Placemark>
  <Placemark>
	<name>Erottaja</name>
      <Point><coordinates>24.944115018530386,60.167092733678601</coordinates></Point>
  </Placemark>
  <Placemark>
	<name>Eerikinkatu</name>
      <Point><coordinates>24.935837190949147,60.167352555933668</coordinates></Point>
  </Placemark>
  <Placemark>
	<name>Mannerheimintie</name>
      <Point><coordinates>24.939381026140918,60.169085388745934</coordinates></Point>
  </Placemark>
  <Placemark>
	<name>Rautatientori / länsi</name>
      <Point><coordinates>24.939776492485361,60.170595265634645</coordinates></Point>
  </Placemark>
  <Placemark>
	<name>Rautatientori / itä</name>
      <Point><coordinates>24.942524579272767,60.170833753166811</coordinates></Point>
  </Placemark>
  <Placemark>
	<name>Varsapuistikko</name>
      <Point><coordinates>24.949522595773924,60.173093112130545</coordinates></Point>
  </Placemark>
  <Placemark>
	<name>Liisanpuistikko</name>
      <Point><coordinates>24.961365185974735,60.174176331387457</coordinates></Point>
  </Placemark>
  <Placemark>
	<name>Kaisaniemen puisto</name>
      <Point><coordinates>24.942823751941408,60.172949450042424</coordinates></Point>
  </Placemark>
  <Placemark>
	<name>Töölönlahdenkatu</name>
      <Point><coordinates>24.939185252719302,60.172905907245763</coordinates></Point>
  </Placemark>
  <Placemark>
	<name>Kiasma</name>
      <Point><coordinates>24.937437068878975,60.171306972138204</coordinates></Point>
  </Placemark>
  <Placemark>
	<name>Narinkka</name>
      <Point><coordinates>24.935158174924844,60.170058135325313</coordinates></Point>
  </Placemark>
  <Placemark>
	<name>Eläinmuseo</name>
      <Point><coordinates>24.931921682697844,60.171298329378601</coordinates></Point>
  </Placemark>
  <Placemark>
	<name>Kampin metroasema</name>
      <Point><coordinates>24.930537769343879,60.168610374565169</coordinates></Point>
  </Placemark>
  <Placemark>
	<name>Marian sairaala</name>
      <Point><coordinates>24.922063624581657,60.168109941404978</coordinates></Point>
  </Placemark>
  <Placemark>
	<name>Lastenlehto</name>
      <Point><coordinates>24.927030851403273,60.165806164497148</coordinates></Point>
  </Placemark>
  <Placemark>
	<name>Kauppakorkeakoulut</name>
      <Point><coordinates>24.92499454854072,60.171168820163693</coordinates></Point>
  </Placemark>
  <Placemark>
	<name>Museokatu</name>
      <Point><coordinates>24.926800584612312,60.174945102365129</coordinates></Point>
  </Placemark>
  <Placemark>
	<name>Apollonkatu</name>
      <Point><coordinates>24.922463706461158,60.176084985368242</coordinates></Point>
  </Placemark>
  <Placemark>
	<name>Töölöntori</name>
      <Point><coordinates>24.924973766398075,60.179110398170742</coordinates></Point>
  </Placemark>
  <Placemark>
	<name>Ooppera</name>
      <Point><coordinates>24.926753125236207,60.182577576584421</coordinates></Point>
  </Placemark>
  <Placemark>
	<name>Linnanmäki</name>
      <Point><coordinates>24.941900704512857,60.186262224225011</coordinates></Point>
  </Placemark>
  <Placemark>
	<name>Braahen kenttä</name>
      <Point><coordinates>24.950822221709515,60.186799616345482</coordinates></Point>
  </Placemark>
  <Placemark>
	<name>Sörnäisten metroasema</name>
      <Point><coordinates>24.960663726566544,60.187718214346049</coordinates></Point>
  </Placemark>
  <Placemark>
	<name>Haapaniemenkatu</name>
      <Point><coordinates>24.956778775583764,60.181960385950298</coordinates></Point>
  </Placemark>
  <Placemark>
	<name>Ympyrätalo</name>
      <Point><coordinates>24.949378245245398,60.180852495484629</coordinates></Point>
  </Placemark>
  <Placemark>
	<name>Hakaniemen metroasema</name>
      <Point><coordinates>24.950895796559951,60.179543114591461</coordinates></Point>
  </Placemark>
  <Placemark>
	<name>Laivasillankatu</name>
      <Point><coordinates>24.955216221226827,60.159745150517203</coordinates></Point>
  </Placemark>
  <Placemark>
	<name>Kaivopuisto</name>
      <Point><coordinates>24.950214449455025,60.155366521666764</coordinates></Point>
  </Placemark>
  <Placemark>
	<name>Kapteeninpuistikko</name>
      <Point><coordinates>24.944891302410308,60.15817033561661</coordinates></Point>
  </Placemark>
  <Placemark>
	<name>Eiran sairaala</name>
      <Point><coordinates>24.941297103838721,60.157688959766922</coordinates></Point>
  </Placemark>
  <Placemark>
	<name>Sepänkatu</name>
      <Point><coordinates>24.936213226406903,60.157939767915913</coordinates></Point>
  </Placemark>
  <Placemark>
	<name>Itämerentori</name>
      <Point><coordinates>24.91456048401124,60.163533312365061</coordinates></Point>
  </Placemark>
  <Placemark>
	<name>Baana</name>
      <Point><coordinates>24.922570402429251,60.16409257691253</coordinates></Point>
  </Placemark>
  <Placemark>
	<name>Hietalahdentori</name>
      <Point><coordinates>24.929748282460075,60.162147442869838</coordinates></Point>
  </Placemark>
  <Placemark>
	<name>Viiskulma</name>
      <Point><coordinates>24.941793356830718,60.160979688706639</coordinates></Point>
  </Placemark>
  <Placemark>
	<name>Mastokatu</name>
      <Point><coordinates>24.967969493010234,60.164752386435737</coordinates></Point>
  </Placemark>
  <Placemark>
	<name>Merisotilaantori</name>
      <Point><coordinates>24.975540529309672,60.167911553241034</coordinates></Point>
  </Placemark>
  <Placemark>
	<name>Kansallismuseo</name>
      <Point><coordinates>24.932942370897074,60.173956011709308</coordinates></Point>
  </Placemark>
  <Placemark>
	<name>Töölönkatu</name>
      <Point><coordinates>24.928332104357001,60.177539900429913</coordinates></Point>
  </Placemark>
  <Placemark>
	<name>Karhupuisto</name>
      <Point><coordinates>24.952553152543899,60.184271823411478</coordinates></Point>
  </Placemark>
  <Placemark>
	<name>Annankatu</name>
      <Point><coordinates>24.941756253396992,60.163478480361526</coordinates></Point>
  </Placemark>
</Document></kml>
